{
"type": "FeatureCollection",
"name": "locations_geocoded",
"crs": { "type": "name", "properties": { "name": "urn:ogc:def:crs:OGC:1.3:CRS84" } },
"features": [
{ "type": "Feature", "properties": { "n": 20, "name": "Above and Beyond", "originFlag": "1", "City": "Chicago", "State": "IL", "pct_n": 3.44, "Address": "Above and Beyond, Chicago, IL", "accuracy": "ROOFTOP" }, "geometry": { "type": "Point", "coordinates": [ -87.7005903, 41.8842805 ] } },
{ "type": "Feature", "properties": { "n": 13, "name": "Aldi Belmont", "originFlag": "1", "City": "Chicago", "State": "IL", "pct_n": 2.24, "Address": "Aldi Belmont, Chicago, IL", "accuracy": "ROOFTOP" }, "geometry": { "type": "Point", "coordinates": [ -87.7427699, 41.9308085 ] } },
{ "type": "Feature", "properties": { "n": 7, "name": "Aldi Cicero", "originFlag": "1", "City": "Chicago", "State": "IL", "pct_n": 1.2, "Address": "Aldi Cicero, Chicago, IL", "accuracy": "ROOFTOP" }, "geometry": { "type": "Point", "coordinates": [ -87.7404629, 41.8516822 ] } },
{ "type": "Feature", "properties": { "n": 40, "name": "Aldi Hodgkins", "originFlag": "1", "City": "Chicago", "State": "IL", "pct_n": 6.88, "Address": "Aldi Hodgkins, Chicago, IL", "accuracy": "APPROXIMATE" }, "geometry": { "type": "Point", "coordinates": [ -87.857835, 41.7689207 ] } },
{ "type": "Feature", "properties": { "n": 2, "name": "Aldi Kostner", "originFlag": "1", "City": "Chicago", "State": "IL", "pct_n": 0.34, "Address": "Aldi Kostner, Chicago, IL", "accuracy": "ROOFTOP" }, "geometry": { "type": "Point", "coordinates": [ -87.7366206, 41.907172 ] } },
{ "type": "Feature", "properties": { "n": 11, "name": "Aldi Lyons", "originFlag": "1", "City": "Chicago", "State": "IL", "pct_n": 1.89, "Address": "Aldi Lyons, Chicago, IL", "accuracy": "ROOFTOP" }, "geometry": { "type": "Point", "coordinates": [ -87.8043567, 41.8207256 ] } },
{ "type": "Feature", "properties": { "n": 32, "name": "Aldi Wicker Park", "originFlag": "1", "City": "Chicago", "State": "IL", "pct_n": 5.51, "Address": "Aldi Wicker Park, Chicago, IL", "accuracy": "ROOFTOP" }, "geometry": { "type": "Point", "coordinates": [ -87.681719, 41.913399 ] } },
{ "type": "Feature", "properties": { "n": 10, "name": "Bimbo", "originFlag": "1", "City": "Chicago", "State": "IL", "pct_n": 1.72, "Address": "Bimbo, Chicago, IL", "accuracy": "ROOFTOP" }, "geometry": { "type": "Point", "coordinates": [ -87.7243248, 41.786064499999988 ] } },
{ "type": "Feature", "properties": { "n": 1, "name": "Chef?s Warehouse", "originFlag": "1", "City": "Chicago", "State": "IL", "pct_n": 0.17, "Address": "Chef?s Warehouse, Chicago, IL", "accuracy": "ROOFTOP" }, "geometry": { "type": "Point", "coordinates": [ -87.68463, 41.840268 ] } },
{ "type": "Feature", "properties": { "n": 2, "name": "Cold Chain", "originFlag": "1", "City": "Chicago", "State": "IL", "pct_n": 0.34, "Address": "Cold Chain, Chicago, IL", "accuracy": "APPROXIMATE" }, "geometry": { "type": "Point", "coordinates": [ -87.6297982, 41.8781136 ] } },
{ "type": "Feature", "properties": { "n": 3, "name": "Friendship Center", "originFlag": "1", "City": "Chicago", "State": "IL", "pct_n": 0.52, "Address": "Friendship Center, Chicago, IL", "accuracy": "ROOFTOP" }, "geometry": { "type": "Point", "coordinates": [ -87.6967924, 41.9684414 ] } },
{ "type": "Feature", "properties": { "n": 8, "name": "Green City Market", "originFlag": "1", "City": "Chicago", "State": "IL", "pct_n": 1.38, "Address": "Green City Market, Chicago, IL", "accuracy": "ROOFTOP" }, "geometry": { "type": "Point", "coordinates": [ -87.6450732, 41.9321622 ] } },
{ "type": "Feature", "properties": { "n": 8, "name": "Irving Park Pantry", "originFlag": "1", "City": "Chicago", "State": "IL", "pct_n": 1.38, "Address": "Irving Park Pantry, Chicago, IL", "accuracy": "ROOFTOP" }, "geometry": { "type": "Point", "coordinates": [ -87.72195, 41.9590469 ] } },
{ "type": "Feature", "properties": { "n": 9, "name": "Local Foods", "originFlag": "1", "City": "Chicago", "State": "IL", "pct_n": 1.55, "Address": "Local Foods, Chicago, IL", "accuracy": "ROOFTOP" }, "geometry": { "type": "Point", "coordinates": [ -87.6631214, 41.9140065 ] } },
{ "type": "Feature", "properties": { "n": 8, "name": "Logan Square Farmers Market", "originFlag": "1", "City": "Chicago", "State": "IL", "pct_n": 1.38, "Address": "Logan Square Farmers Market, Chicago, IL", "accuracy": "ROOFTOP" }, "geometry": { "type": "Point", "coordinates": [ -87.7067884, 41.9277643 ] } },
{ "type": "Feature", "properties": { "n": 19, "name": "Marianos South Loop", "originFlag": "1", "City": "Chicago", "State": "IL", "pct_n": 3.27, "Address": "Marianos South Loop, Chicago, IL", "accuracy": "APPROXIMATE" }, "geometry": { "type": "Point", "coordinates": [ -87.6275005, 41.8674081 ] } },
{ "type": "Feature", "properties": { "n": 2, "name": "Marianos West Loop", "originFlag": "1", "City": "Chicago", "State": "IL", "pct_n": 0.34, "Address": "Marianos West Loop, Chicago, IL", "accuracy": "APPROXIMATE" }, "geometry": { "type": "Point", "coordinates": [ -87.6520702, 41.8830596 ] } },
{ "type": "Feature", "properties": { "n": 5, "name": "Marillac", "originFlag": "1", "City": "Chicago", "State": "IL", "pct_n": 0.86, "Address": "Marillac, Chicago, IL", "accuracy": "ROOFTOP" }, "geometry": { "type": "Point", "coordinates": [ -87.69827, 41.877138 ] } },
{ "type": "Feature", "properties": { "n": 1, "name": "Midwest Foods", "originFlag": "1", "City": "Chicago", "State": "IL", "pct_n": 0.17, "Address": "Midwest Foods, Chicago, IL", "accuracy": "ROOFTOP" }, "geometry": { "type": "Point", "coordinates": [ -87.7022347, 41.8282626 ] } },
{ "type": "Feature", "properties": { "n": 20, "name": "NA4J", "originFlag": "1", "City": "Chicago", "State": "IL", "pct_n": 3.44, "Address": "NA4J, Chicago, IL", "accuracy": "APPROXIMATE" }, "geometry": { "type": "Point", "coordinates": [ -87.6297982, 41.8781136 ] } },
{ "type": "Feature", "properties": { "n": 1, "name": "New Life Albany Park", "originFlag": "1", "City": "Chicago", "State": "IL", "pct_n": 0.17, "Address": "New Life Albany Park, Chicago, IL", "accuracy": "ROOFTOP" }, "geometry": { "type": "Point", "coordinates": [ -87.7238106, 41.963712699999988 ] } },
{ "type": "Feature", "properties": { "n": 1, "name": "Nourishing Hope", "originFlag": "1", "City": "Chicago", "State": "IL", "pct_n": 0.17, "Address": "Nourishing Hope, Chicago, IL", "accuracy": "ROOFTOP" }, "geometry": { "type": "Point", "coordinates": [ -87.6543768, 41.9540024 ] } },
{ "type": "Feature", "properties": { "n": 1, "name": "Oakdale Covenant Church", "originFlag": "1", "City": "Chicago", "State": "IL", "pct_n": 0.17, "Address": "Oakdale Covenant Church, Chicago, IL", "accuracy": "ROOFTOP" }, "geometry": { "type": "Point", "coordinates": [ -87.6507024, 41.7223048 ] } },
{ "type": "Feature", "properties": { "n": 1, "name": "Pilsen Food Pantry", "originFlag": "1", "City": "Chicago", "State": "IL", "pct_n": 0.17, "Address": "Pilsen Food Pantry, Chicago, IL", "accuracy": "ROOFTOP" }, "geometry": { "type": "Point", "coordinates": [ -87.6664547, 41.8533543 ] } },
{ "type": "Feature", "properties": { "n": 9, "name": "Sysco", "originFlag": "1", "City": "Chicago", "State": "IL", "pct_n": 1.55, "Address": "Sysco, Chicago, IL", "accuracy": "ROOFTOP" }, "geometry": { "type": "Point", "coordinates": [ -87.6617011, 41.8517349 ] } }
]
}
